Time [s],Pos ECEF X [m],Pos ECEF Y [m],Pos ECEF Z [m],Latitude [deg],Longitude [deg],Altitude [m],Vel ECEF X [m/s],Vel ECEF Y [m/s],Vel ECEF Z [m/s],Vel N [m/s],Vel E [m/s],Vel D [m/s],Roll [deg],Pitch [deg],Yaw [deg]
0,6378137.29439884,504.427931738291,1.1992716220992,1.08458459590534e-05,0.00453135298956964,0.314345810383069,0.0189855659386251,2.99219401226017,3.18995829858293,3.18995829494419,2.99219250139044,-0.0192228134597976,-1.94125651944795e-19,0.00317602413578035,44.9999998883979
1,6378137.94788914,499.910915059247,3.52737821633376,3.1900527057137e-05,0.00449077548036478,0.967481332534051,0.008823368274685,2.92343313455689,3.18588782501745,3.18588781997681,2.92343243401204,-0.00905427728554037,0,0.0031829157265899,44.4044278654772
2,6378137.75633463,506.799626261502,6.49188415571539,5.87106115941846e-05,0.0045526579531213,0.776472818860116,0.0369219394086402,3.05768929326068,3.20335085435985,3.20335081627553,3.05768634983238,-0.0371681822836459,-1.94125651944795e-19,0.00318319153883046,43.6972001873701
3,6378137.7409974,509.489852202208,11.7404403540717,0.000106176946273842,0.00457682467191056,0.761357473353284,-0.049520862665664,3.06560474031658,3.28428038754949,3.284280478859,3.06560868629507,0.0492698937559712,7.76502607779179e-19,0.0031765127391423,42.8777426600688
4,6378138.18377639,513.109833151772,12.9327714614193,0.000116960015398596,0.00460934319008891,1.20442897401354,-0.0391943410283848,2.86542056576441,3.30957798858699,3.3095780681184,2.8654237096068,0.0389570669667205,1.16475391166877e-18,0.00316245844650247,41.9446728751777
5,6378135.98064571,514.218454391872,15.5514599342449,0.000140642679049592,0.00461930369781443,-0.998606529582827,0.0153394553281427,3.01837452156213,3.24581855537215,3.24581851711161,3.01837327505407,-0.0155907702845746,5.82376955834384e-19,0.00314052580174213,40.8958386043046
6,6378135.53662242,518.375996918958,20.2314031866497,0.000182966676852226,0.00465665186768287,-1.44228005858393,-0.109445819450918,3.02371694960551,3.36124631290282,3.36124666160201,3.02372583470837,0.109189336092098,9.70628259723974e-19,0.00311012993444048,39.7283612356827
7,6378138.74143222,520.239887454144,23.4765301222935,0.000212314513625327,0.00467339313673923,1.76269268560252,0.0529732258044784,2.7777483330355,3.36156452332167,3.3615643261621,2.77774400297599,-0.05321225228979,-1.94125651944795e-19,0.00307060439301277,38.4386888342415
8,6378138.3272544,523.718699780083,25.3225556914543,0.000229009415727392,0.00470464413633318,1.34880667350487,-0.255722424759501,2.85035879613641,3.4409249323431,3.44092595349456,2.85037978428702,0.255474623304996,1.94125651944795e-19,0.00302120278808577,37.0226645945819
9,6378138.56395232,526.082505592592,30.394873310872,0.00027488188801145,0.00472587838529006,1.5857214353336,-0.0253096051433412,2.43693162026305,3.6570584375481,3.65705855796689,2.4369336995638,0.025091056645681,-1.94125651944795e-19,0.00296110263459919,35.4756177972672
10,6378136.10084508,527.325377340901,33.4983741350179,0.000302949112935952,0.00473704511870366,-0.877267509301046,-0.110232523659298,2.06826093095406,3.48166817353446,3.48166875543165,2.06827003758339,0.110043116422203,0,0.00288941266231974,33.7924857825537
11,6378138.14267535,527.237982382978,36.12011278992,0.000326659215103987,0.00473625852011715,1.16456993212553,0.0163815411325801,2.15938416823554,3.45966073947947,3.45966064500982,2.15938280670543,-0.0165797673996691,7.76502607779179e-19,0.00280518518456533,31.9679767682207
12,6378138.14626085,533.903694106902,40.9565171277776,0.000370398171439321,0.00479613761349034,1.16873934497057,-0.0137158012873275,2.16483741999239,3.45687621338091,3.45687630080528,2.16483856053546,0.0135122386224688,3.88251303889589e-19,0.0027074354372446,29.9967842800041
13,6378136.43676452,533.998976279902,43.6741303791857,0.00039497553823084,0.00479699483336503,-0.540730848881212,0.13305315770983,2.08948517559244,3.55288510954932,3.55288419104055,2.0894740286126,-0.133252588199925,-5.82376955834384e-19,0.00259517005942079,27.8738640871853
14,6378134.92155628,533.434991544092,47.1797192288282,0.000426679118532312,0.00479192961025565,-2.05596114658896,-0.0880991989220714,1.79255549377866,3.57131977295417,3.5713204278095,1.79256285568139,0.0879226828646776,0,0.00246742697325136,25.5947831954775
15,6378137.35525495,537.049993784151,50.4508538656168,0.000456262096049306,0.00482440189741074,0.378066088979552,-0.152529726495843,1.51015422998446,3.69068266610132,3.69068387960799,1.5101670678929,0.152373178476659,-2.91188477917192e-19,0.00232332867360083,23.1561468033017
16,6378138.23655898,539.540202440235,53.9288378934215,0.00048771585227443,0.00484677115126317,1.25960893218322,-0.113802570838375,1.47172057742104,3.47684449764897,3.4768454651789,1.47173019895546,0.113648478710706,-9.70628259723974e-20,0.00216215014552652,20.5561022260426
17,6378138.22391351,542.85302067562,57.2104900298409,0.000517394107647088,0.00487653070749119,1.24727334117406,0.0328019669332758,1.26497078415568,3.44352933061331,3.44352903329136,1.26496798774881,-0.0329407262596029,1.94125651944795e-19,0.00198340106259827,17.7949078011465
18,6378137.06073729,541.598531371704,60.8181558139703,0.000550020830400089,0.00486526232785458,0.0840240807123648,0.184878818939028,1.0366270363299,3.57588570874631,3.57588393296007,1.03661133363606,-0.185001170628285,1.94125651944795e-19,0.00178691940712222,14.8755393969727
19,6378137.10340656,542.380314569505,64.1497197806769,0.00058015047370882,0.00487228517309628,0.12679264192745,-0.0167721856714453,0.725644878005071,3.62941282278947,3.62941299180597,0.725646301644738,0.0166737288930271,-4.85314129861987e-20,0.0015729702023844,11.8042881763267
20,6378138.37189877,541.174609325442,69.0970417255417,0.000624892417304556,0.00486145317200905,1.39523446412623,0.211263659502,0.505284141321197,3.52811886110502,3.52811655629526,0.505266214126445,-0.211345010443729,2.42657064930993e-20,0.00134233900949769,8.59128330752692
21,6378139.126865,539.960442565698,73.9342038387382,0.000668638145706948,0.00485054555470755,2.15015238475037,0.0915853311583881,0.309512543692482,3.49555824813363,3.49555717879477,0.309504789153267,-0.0916523264789386,3.6398559739649e-20,0.001096406054866,5.25085714143258
22,6378136.66893652,541.193807893936,77.027627700388,0.000696614387661162,0.00486162693369969,-0.307634699123025,0.237220491464212,0.397017640167314,3.59222805525465,3.59222517040191,0.396997510248025,-0.237297853173951,0,0.000837184641551736,1.80166456024338
23,6378138.18407247,543.815895298921,80.7867457108683,0.00073061053044918,0.00488518038619192,1.20777109177188,-0.0596380520315849,-0.10497332938828,3.51279345574095,3.51279421604764,-0.104968244118369,0.0596022085025077,0,0.000567308392538723,-1.73352045897533
24,6378135.89963965,542.266675378687,82.7385643342761,0.00074826244878408,0.00487126525427035,-1.07676842943081,0.0368969875539524,-0.637656258088681,3.51563886145406,3.51563838000076,-0.637659392751846,-0.0368886871162663,0,0.000289957017298696,-5.32837539691927
25,6378135.24425555,543.137729927547,87.604353291089,0.000792267248350577,0.00487909057305905,-1.73201299213095,0.0572582573321041,-0.608160702421154,3.34490352735762,3.34490273600555,-0.608165576111413,-0.0572527206967013,0,8.71966057718553e-06,-8.95395902991671
26,6378137.43846896,542.026195744256,89.5815030461456,0.000810147711563184,0.00486910381385128,0.462133492276036,0.0786997883396334,-0.715304875112206,3.39216014495216,3.39215903267765,-0.715311560586265,-0.0786869643646083,0,-0.000272593235666565,-12.5799305040157
27,6378138.70030137,541.305477318146,92.052133302318,0.000832491170058936,0.00486262852855737,1.72394011172755,0.0115318945547567,-1.02915956483647,3.3291694518825,3.32916928524505,-1.02916053982904,-0.0114929227674818,0,-0.000550167468836345,-16.1759310756752
28,6378135.6121073,542.051349619527,94.8899424265182,0.000858155860905935,0.00486933116925945,-1.36414873312725,-0.0223286548829011,-1.1700685237326,3.25313323546545,3.2531335710206,-1.17006662188717,0.022379369805261,0,-0.00082040308396984,-19.7129679673365
29,6378135.6627022,543.4843046006,99.5158845796424,0.000899991471562931,0.00488220358684849,-1.31336091505494,-0.21363331109667,-1.34108049589364,3.35457135973721,3.35457471683075,-1.34106228721788,0.213694891486479,0,-0.00108010381955979,-23.1646393346148
30,6378138.14517414,537.769146098775,102.345391735299,0.000925580313323258,0.00483086155387114,1.16867166312116,-0.190625820879585,-1.57056811795841,3.1701232024455,3.17012628362137,-1.5705520398666,0.190707030233822,0,-0.00132661561722449,-26.5080725707579
31,6378138.12977687,532.170407585928,106.705519508424,0.000965011973201148,0.004780567251017,1.15287672087759,-0.0217194957218592,-1.45377470012549,3.08752160262025,3.08752197003887,-1.45377288286342,0.0217887917140659,0,-0.00155790289693047,-29.7245043209418
32,6378134.24819808,533.831455731835,109.455417066666,0.000989881809294882,0.00479549161605981,-2.72851632742045,-0.0935044570302406,-2.00735755358458,3.02332489348219,3.02332651138179,-2.00734972050004,0.0936202336630468,0,-0.00177256319706027,-32.7994928654781
33,6378137.17636573,530.727358734748,113.399039964381,0.00102554627247193,0.00476760483768257,0.199461623007211,-0.147624564727404,-2.12803729281373,2.92098453694685,2.92098718200399,-2.12802500154716,0.147749355863826,0,-0.00196979025150581,-35.7228060978786
34,6378136.62117649,532.504037053678,115.057893265959,0.00104054852608696,0.00478356542640762,-0.355549618706623,-0.0443352941747586,-2.34429025430379,2.86909662828932,2.86909743654386,-2.34428654462556,0.0444789107260173,0,-0.00214930085108325,-38.4880614979135
35,6378138.38769911,530.617468166466,117.484834891659,0.0010624967503719,0.00476661676867198,1.41086030769641,0.0874874739268501,-2.86905302529813,2.97249274953996,2.97249113108153,-2.86906029372875,-0.0873039101346547,0,-0.00231124184795624,-41.0922063441272
36,6378137.02004391,523.778033781881,120.414968795388,0.00108899621631069,0.00470517810695989,0.0426947998169233,0.155667031385645,-2.66439981551666,2.88261484676654,2.88261189170832,-2.66441259004142,-0.155503016675174,0,-0.00245609152403988,-43.5349209530406
37,6378135.89258827,518.492372114239,125.795259218929,0.00113765412287482,0.00465769702413434,-1.08508816506408,0.00618985592695376,-3.27200020603042,2.87616094860585,2.87616083041568,-3.27200069840574,-0.00598097648443329,0,-0.0025845657884791,-45.8180117339266
38,6378136.14654712,516.577709671451,125.232008493672,0.0011325602089935,0.00464049713112728,-0.831295832140015,0.0396442416640834,-3.16451920890147,2.7748021985734,2.77480141945362,-3.16452240938691,-0.0394427901832674,0,-0.00269753562978686,-47.9448409177021
39,6378135.63003578,515.553810800179,129.999607079899,0.00117567701690904,0.004631299664952,-1.34779398984461,-0.105332166961365,-3.549633808489,2.55206690391629,2.55206907062303,-3.54962528274341,0.105566721592965,0,-0.00279595877577461,-49.9198207806305
40,6378137.63814924,509.272107194916,132.213952962084,0.00119570251053882,0.00457486870923963,0.659860622728664,0.0187855233182015,-3.63138967749035,2.54585040135641,2.545850014819,-3.63139116587315,-0.0185486986332083,0,-0.00288082597479798,-51.7479846864536
41,6378137.23872274,509.270538595176,133.007284348304,0.00120287723253584,0.00457485490476707,0.260450610943983,-0.0488172238369247,-3.42283484271627,2.61969294551064,2.61969397554805,-3.42283093393149,0.0490355260281491,0,-0.00295312072113066,-53.4346361677346
42,6378135.32665095,506.614176136219,135.705752021224,0.00122728171995044,0.00455099376016214,-1.65177549709695,-0.0529684746700059,-3.43224149000251,2.42598024096071,2.42598138083415,-3.43223727189865,0.0531891320765287,0,-0.00301379043440641,-54.9850702710856
43,6378135.87173359,503.261796939022,138.291366955235,0.00125066513074736,0.00452087843138059,-1.10690234445272,0.0895968810442489,-3.86606521194701,2.24317337675136,2.24317142713481,-3.86607226948363,-0.0893407964004511,0,-0.00306372684200858,-56.4043576742037
44,6378138.29816278,498.7646680809,141.320371423157,0.0012780580379767,0.00448047832409967,1.31924042148886,-0.146876644235528,-3.61521414206143,2.17796604975613,2.17796933179796,-3.61520264538653,0.147110767828116,0,-0.00310375339066378,-57.6971806948818
45,6378137.71372921,493.991902063707,143.358067628293,0.00129648645632346,0.00443760425309901,0.734481191896444,-0.0312411437293494,-3.56993529040378,2.2487795822859,2.24878029488996,-3.56993286004469,0.0314667527012408,0,-0.00313461776923763,-58.8677104079386
46,6378137.8670059,491.25396804783,145.330800783962,0.00131432721901952,0.00441300887021273,0.887591361655629,-0.109880129043421,-3.97498984064731,2.35095090828561,2.35095343526751,-3.9749813657207,0.11013235925003,0,-0.00315698794403344,-59.9195150134376
47,6378137.72540133,488.722450451014,147.148918181008,0.00133076974529237,0.00439026796141661,0.745834284113101,-0.049299602452701,-3.96643241506862,2.08418871220936,2.0841898637543,-3.96642862586065,0.0495551206936618,0,-0.00317145042897758,-60.8554909067737
48,6378134.09115661,485.177207922258,149.943718568674,0.00135604584189658,0.00435842299314642,-2.88861556878391,0.11854691214637,-3.85205566936252,2.24938859247832,2.24938579307854,-3.85206467594269,-0.118307127722411,0,-0.0031785097976715,-61.6778093049515
49,6378139.5421718,479.247317631551,151.882201952107,0.00137357572019353,0.00430515017898576,2.56199745851176,0.0267168601827383,-4.01696133856384,1.88835781894503,1.88835718514382,-4.01696333470358,-0.0264602998524726,0,-0.00317858868099993,-62.3878726270552
50,6378136.51834704,475.180266990709,155.923363583634,0.00141012341081821,0.00426861727994984,-0.462033417685536,-0.066791439850757,-3.87325200059117,2.10600855885241,2.10601020914041,-3.87324701378449,0.0670281708414678,0,-0.00317202768036538,-62.986276042029
51,6378137.57072423,470.450095378994,158.394118473364,0.00143246792764872,0.00422612472512098,0.590054412732784,0.0245059693963841,-3.89443494431075,2.00463947088614,2.00463886476066,-3.89443674127208,-0.0242688351708968,0,-0.00315908476992196,-63.472770673414
52,6378135.55486105,466.444028802273,158.389763051149,0.00143242899439204,0.00419013894451269,-1.42610309994337,-0.0318984064979033,-3.93395331334533,1.9957423371064,1.99574314115466,-3.93395097004009,0.0321362084168734,0,-0.00313993386715775,-63.8462259168561
53,6378136.49239441,465.264495069762,158.541977658553,0.00143380536499197,0.00417954239600965,-0.488652094370548,-0.0218900951562324,-3.7457649934917,1.74766381960036,1.74766437368231,-3.74576338671379,0.0221196019401274,0,-0.00311466233353863,-64.104589236866
54,6378140.15857789,464.194666104265,161.467415207074,0.00146026128627868,0.00416992956128931,3.17752730608509,0.0570484298734972,-3.84584823773661,1.7704139467491,1.77041249935043,-3.84585237947899,-0.056813654133974,0,-0.00308326723353986,-64.2448427409384
55,6378136.94461726,453.432534191944,163.810868373599,0.00148145550251016,0.00407325378632353,-0.0371473264675013,0.0307553970970111,-3.44298388078212,1.90517310178242,1.90517231225431,-3.4429860585348,-0.0305598901491206,0,-0.00304565024568224,-64.2629568798611
56,6378137.87636315,451.661876863535,166.433416254836,0.0015051728038656,0.00405734710814017,0.894541275560884,0.00243849327880641,-4.23890116176945,1.80170115523698,1.80170109844115,-4.2389013238208,-0.00218565053380044,0,-0.003001611198271,-64.1538429163018
57,6378136.31203451,446.166309700181,166.030481567633,0.00150152915690281,0.00400798057840441,-0.670184720270783,0.244948899865738,-3.91491300166227,1.93672417526128,1.93671776248853,-3.91493012686124,-0.244725796406689,0,-0.00295084031164126,-63.9113074937656
58,6378136.2091381,446.229390998811,168.299082303158,0.00152204571639306,0.00400854731207837,-0.773016864494033,-0.0239710306600245,-3.47898045641592,1.8046737617148,1.80467440432727,-3.47897877083198,0.024166487603313,0,-0.0028929093970035,-63.5280149145767
59,6378138.80815618,439.218594846918,171.242469788134,0.00154866418243935,0.00394556664342817,1.8255934453769,-0.168039185188211,-3.76334451964152,1.81257480483016,1.81257935315253,-3.76333293901434,0.168249347798202,0,-0.0028272625159686,-62.9954658238356
60,6378140.77648674,435.879183153933,171.894291385486,0.00155455857338697,0.00391556699806928,3.79371256646275,-0.122372311778781,-3.6692257267108,1.8394464034952,1.83944972984743,-3.6692173552756,0.122573156467785,0,-0.00275320699283471,-62.3040051434938
61,6378134.92919969,438.552239437218,175.042066960844,0.00158302753884584,0.00393958306857547,-2.05330504465926,0.0392153239798987,-3.01804222647157,1.78756787705933,1.78756679862868,-3.0180449157318,-0.0390571960146088,0,-0.00266990623902685,-61.4428775351733
62,6378139.81661758,428.222714786184,175.296442394652,0.00158532681056008,0.00384678839245461,2.8334179813227,-0.183955709082744,-3.16543412632912,1.91267377340406,1.91267886845453,-3.16542176856979,0.184115310968188,0,-0.00257637665065667,-60.4003555106195
63,6378135.55531644,428.55104457209,177.451648426177,0.00160481890676849,0.00384974039983927,-1.4278010955656,-0.144587096362618,-2.87085978445485,2.11490449864534,2.11490855301263,-2.87085006307418,0.144720753750167,0,-0.00247149191784327,-59.1639733875484
64,6378136.53520123,425.628864956453,181.034811094258,0.0016372236903669,0.00382348942048465,-0.448010602930487,-0.0559743984492842,-2.96101513952351,1.94772278285283,1.94772438716923,-2.9610113976201,0.056116338113666,0,-0.00235399942505255,-57.7209088514815
65,6378137.18474477,420.063149777386,181.690748441321,0.00164315561956979,0.00377349136264789,0.201182728826672,-0.191515462489496,-2.87976432048153,1.7939182588721,1.7939237559451,-2.87975170105666,0.191653675996088,0,-0.00222255490988152,-56.0585611286393
66,6378135.60898426,419.573498829755,183.955669864684,0.00166363929073405,0.0037690936846722,-1.37454464722902,-0.053605010536856,-2.80247333566762,1.92854405309426,1.92854561410841,-2.8024698033004,0.0537333685939585,0,-0.00207578284871319,-54.1653772569575
67,6378137.84327898,418.061408589106,186.155422264357,0.00168353259061619,0.00375550902845221,0.859715029417065,-0.0445609336223987,-2.50769071154346,1.83405663019348,1.83405794357366,-2.50768778536575,0.0446714121681931,0,-0.00191237048538846,-52.0319700247126
68,6378138.12900118,413.700467264834,187.427793686698,0.00169503945145939,0.00371633386486977,1.14519039078463,0.165834327052777,-2.38808810656915,2.21280294562194,2.21279804319014,-2.38809885793524,-0.165744893440202,0,-0.00173120191072011,-49.6525449674304
69,6378137.38829361,411.050221458286,190.338570207104,0.00172136382238432,0.003692526734858,0.404398249159803,0.0290682890337846,-2.14329803093793,2.21469918464296,2.21469831448116,-2.14329989984369,-0.0289966976100733,0,-0.00153153366315592,-47.0266006810866
70,6378137.35350961,407.317449572274,194.027129857081,0.00175472203755669,0.00365899469661885,0.369486669410502,0.0319939106511771,-2.35398114013911,2.30587268814586,2.30587171183323,-2.35398317851828,-0.031914200705466,0,-0.00131320355725622,-44.1607811295071
71,6378136.72387662,402.2022591712,193.659930666502,0.00175140137450108,0.00361304451883634,-0.260482168146005,0.0055357023899254,-2.1125127717366,2.20302980642258,2.20302964025158,-2.11251311661514,-0.00546982992841605,0,-0.00107684959814302,-41.0706456722076
72,6378135.798153,404.601722425006,198.861247111265,0.00179844075748475,0.00363459979235534,-1.18589289852365,0.105564918530915,-1.83813139856215,2.24964298591557,2.24963967492047,-1.83813809145177,-0.10551892845052,0,-0.000824098380765951,-37.7820069121074
73,6378140.51231968,406.675280619797,199.475301499036,0.00180399273659773,0.00365322418583132,3.52842495121435,0.0826616550677635,-1.53226652514729,2.45536729743864,2.45536469664481,-1.53227179260508,-0.0826412650785272,0,-0.000557668786976915,-34.3314169899277
74,6378136.14009623,401.169519060821,203.386155919734,0.00183936256003817,0.00360376758606167,-0.844022825378251,0.11934238450544,-1.21613924350795,2.42169327799734,2.42168944796453,-1.21614674745309,-0.11934363541288,0,-0.000281336749920417,-30.7654222637282
75,6378136.15896111,402.445757445181,203.986611580762,0.0018447928929637,0.00361523222133742,-0.825058241710646,-0.124301010510638,-1.25323564803819,2.69807240479431,2.69807640814973,-1.25322780243487,0.124293214739665,0,2.71383041861933e-07,-27.1383987574002
76,6378135.90093992,402.734096384269,206.856363628232,0.00187074613409764,0.00361782256078397,-1.08296817643405,-0.100709173525732,-0.931735836174066,2.72202295619079,2.72202624488372,-0.931729475245814,0.100679129889186,0,0.000282046265921425,-23.5091087500038
77,6378140.07170908,400.255586604857,209.674452107781,0.00189623082219825,0.00359555537367528,3.0877375943852,0.0637532811578039,-1.07404504577224,2.8238695763491,2.82386746708838,-1.07404904444862,-0.0637793373685051,0,0.000558862625046265,-19.9364807455737
78,6378139.24609682,398.839656513099,214.462716219593,0.00193953465295603,0.00358283632720102,2.26219691999929,0.147438681488802,-0.752188455656509,2.92597218093038,2.9259671898602,-0.752197673864324,-0.147490692910688,0,0.000826049846043753,-16.4753591881716
79,6378137.45199147,398.763445591893,217.292378014749,0.00196512579787885,0.00358215272071436,0.46818322617822,0.0809263091474501,-0.698960598553344,2.80001908600113,2.80001631024933,-0.698965656729217,-0.0809786444916761,0,0.00107976862848436,-13.1729801309734
80,6378134.83312004,395.818176225538,219.051629824287,0.00198103675203894,0.00355569637778901,-2.15081107998324,-0.0605714209461685,-0.762157205979633,3.09449596666914,3.09449806074888,-0.76215344553387,0.0605117251114852,0,0.00131722937724394,-10.0666997389056
81,6378136.48466251,395.534898955288,220.077358547535,0.00199031261383718,0.00355315073387288,-0.499250639362199,-0.0797931616715495,-0.291234594638388,3.06825884893871,3.06826161953047,-0.291229645770961,0.0797046384771977,0,0.00153673822711469,-7.1831441176107
82,6378138.03028747,394.148204509788,221.690208772452,0.00200489825102446,0.00354069298674386,1.04634471275286,-0.173927637967482,-0.151828938749857,3.25926892063851,3.25927500506048,-0.151818190297124,0.173822971479317,0,0.00173760084257776,-4.53861381872114
83,6378137.2940884,393.397248539557,227.20211719594,0.00205474649892737,0.00353394744350894,0.310294547892089,0.172239169398058,-0.238115043743421,3.18304016883724,3.18303399046022,-0.238125666833397,-0.172338632735906,0,0.00191993755605196,-2.14037196051671
84,6378133.55740511,394.68007366143,231.536152075335,0.00209394342055012,0.00354547333421612,-3.42615256642675,0.0941336679702673,-0.141045627572413,3.32857549385704,3.32857205172464,-0.141051452310988,-0.0942465866070287,2.36969789971673e-22,0.00208446466064365,0.0116050197295704
85,6378137.37634147,394.387297167092,233.776672321366,0.00211420473831105,0.00354284115551748,0.392847953704202,-0.0163987368331426,0.0449910956763479,3.23706478444679,3.237065387251,0.044992109593815,0.0162765076479468,-2.42657064930993e-20,0.00223228366493946,1.92277154927565
86,6378135.24588061,396.203118556651,235.944889271522,0.00213381414688884,0.00355915414441549,-1.73741998312882,-0.018328449452703,0.260816303082525,3.61779319847055,3.6177938779479,0.260817441123499,0.0181775136148743,7.2797119479298e-20,0.00236470283614074,3.60229548717243
87,6378134.42403459,398.319852167475,240.289638849351,0.00217310702852642,0.00357816955218157,-2.55897086630952,-0.123156259255281,0.0270075837417557,3.73176009349882,3.73176476180564,0.0270152749009115,0.123013034558714,-7.2797119479298e-20,0.00248310017940188,5.06160819953344
88,6378134.54092895,397.542796606891,244.328500142491,0.00220963323125498,0.00357118907507224,-2.44197051695283,0.0435423567798554,0.634959395312783,3.81884852820585,3.81884684461239,0.63495668012752,-0.0437292083778818,-4.85314129861987e-20,0.00258882686020206,6.31326323274848
89,6378138.47399401,398.402677444402,246.022953348253,0.00222495597346504,0.00357891131207974,1.49121375439959,-0.247925066191198,0.272994802815503,3.70945405643669,3.70946368060393,0.273010288621204,0.247763964716591,4.85314129861987e-20,0.0026831448420625,7.37008918597725
90,6378138.71687294,395.633750682018,252.971450429224,0.00228779595769298,0.00355403749027445,1.73419397523808,0.0121855349342881,0.413395334522538,3.94086782705868,3.94086733632998,0.413394577862693,-0.0123685348373637,-4.85314129861987e-20,0.00276719082205087,8.24459445256364
91,6378134.06511633,396.275705973335,256.998216979982,0.00232421450181605,0.00355980686746666,-2.9173607048495,-0.0492255182261814,0.349734090748877,3.92943443613811,3.92943642886643,0.349737148472561,0.0490443907126627,4.85314129861987e-20,0.00284195890721702,8.94857249341139
92,6378137.9317741,397.110865988256,260.816619898076,0.00235874554857565,0.00356730707831893,0.949505042512151,-0.065731869312796,0.703449115184895,3.91632650907444,3.91632920999414,0.703453206370053,0.0655268446615478,1.94125651944795e-19,0.0029082957509309,9.4928582243438
93,6378136.48395432,400.617148001793,262.543732313465,0.00237436556626487,0.00359880535774519,-0.498024127756576,-0.0873000952996064,0.529163198209864,4.0838933119582,4.08389692483347,0.529168680572542,0.0870976192138665,0,0.00296690336222768,9.8871931274743
94,6378135.18692998,401.691324682922,267.48249086079,0.00241903068979345,0.00360845558558934,-1.79477431057956,0.132257840233653,0.825769901430081,4.28867528185393,4.28866969190322,0.825761570268909,-0.132490914457657,-9.70628259723974e-20,0.00301834616300659,10.1401652393609
95,6378137.59542411,404.378152676311,271.257244983267,0.00245316749088245,0.00363259040714767,0.614050087866605,0.242396552223466,0.517531400573107,4.09479376892935,4.09478338535684,0.517516031430856,-0.242604685422966,9.70628259723974e-20,0.00306305996625505,10.2591983209345
96,6378137.94714663,402.792766773122,276.632275819941,0.00250177748554194,0.0036183484451197,0.965904702233812,-0.118205222879939,0.784647984567888,4.17361982195262,4.17362497715321,0.784655447910551,0.117973432371366,0,0.00310136136995279,10.2505714597652
97,6378137.31100781,399.538092157356,281.939802729423,0.00254977738763545,0.00358911156802389,0.32979514882611,0.0351256456571942,0.636916901907377,4.27844267148647,4.27844110231252,0.636914700323584,-0.0353559424846732,0,0.00313345664411875,10.1194558947813
98,6378135.41785351,401.389011688564,285.509792033232,0.00258206405104326,0.00360573973044635,-1.56308305652895,0.309336009665731,0.786280770205326,4.21162314507223,4.21160919817774,0.786261301505208,-0.309575289967801,0,0.00315944958585089,9.86996009132284
99,6378138.89913984,404.312247849072,288.627463507248,0.00261025789277783,0.00363199763167504,1.91852916901566,0.0753749393398913,0.844117857484677,4.35903712601305,4.35903368515081,0.844113077747401,-0.0756270352547625,0,0.00317934808026692,9.50517725448432
100,6378137.9328984,402.779537747833,293.712344795317,0.00265624439826951,0.00361822961486453,0.952424448246164,-0.123308805155034,0.589200962397142,4.38347789249739,4.38348360268393,0.589208748175789,0.123068377766537,9.70628259723974e-20,0.00319306927659505,9.02723179869987
101,6378137.51725546,405.293582180912,297.433096172897,0.00268989390935444,0.0036408138941228,0.537114355113098,-0.130127985044667,0.49763640175841,4.46845525134277,4.46846135411806,0.497644669631104,0.129886579910297,1.94125651944795e-19,0.00320044340149378,8.43732301901606
102,6378136.84830238,406.628131150036,301.604716165833,0.00272762105199737,0.00365280273357968,-0.131556556407283,0.0547136568183779,0.494019354965058,4.3398635197825,4.33986090866876,0.494015865777546,-0.0549517554800036,4.85314129861987e-20,0.00320121631116737,7.73576552709527
103,6378138.79617324,406.07711565868,306.472011102028,0.00277163853047743,0.00364785176305833,1.81651277026253,-0.166735028186772,0.480673776337315,4.41356767205629,4.41357573108846,0.480684390886128,0.166490921700229,1.45594238958596e-19,0.00319505094914981,6.92202707947766
104,6378138.14210175,405.548762158322,311.891244739327,0.0028206487024894,0.00364310585776298,1.1626721407351,-0.0764179734114929,0.347233572238045,4.39924159606815,4.39924535167711,0.347238430511228,0.0761793216639061,0,0.00318152794286921,5.99476536257668
105,6378133.56517645,405.968477807548,316.256158012522,0.00286012570477178,0.00364687884388444,-3.41401005836525,-0.120700888577351,0.2809675276388,4.47259725212075,4.4726032708761,0.280975209686427,0.120459738746848,0,0.00316014565192884,4.95186620819539
106,6378138.46909105,402.634947066259,320.970200311414,0.00290275584060816,0.00361693043080223,1.48993028485117,-0.100923831739465,0.375939627656557,4.36173022125508,4.36173532752355,0.37594599796101,0.100679122540843,2.42657064930993e-20,0.00313032008570556,3.79048667308257
107,6378138.61208076,409.839519752644,324.939200614126,0.00293865019286272,0.00368165011069203,1.63358119738422,0.0252156456878261,0.0861929079224828,4.30945668886318,4.30945538962264,0.0861912874649054,-0.0254422123403819,-2.42657064930993e-20,0.00309138524766467,2.50710748279387
108,6378138.10131855,407.346689326956,330.375605995133,0.00298781561198447,0.00365925693275656,1.12294045280784,0.0829297646455469,-0.0697502453531999,4.49058778279004,4.49058345235998,-0.0697555416100653,-0.0831594813571608,0,0.00304259464762287,1.0976005444744
109,6378135.47183268,408.330073384379,332.807148941919,0.00300980698946007,0.00366809233271219,-1.50635526702341,0.107118339200716,0.0942856509517482,4.33203628659199,4.33203065325981,0.0942787930115571,-0.107351941407175,0,0.00298312495698479,-0.442681431414064
110,6378137.07075142,410.403148999797,336.673495170086,0.0030447722843937,0.00368671416798894,0.0929008120706033,0.155632753966724,-0.190932611566459,4.16054454353341,4.16053626778454,-0.190942625407562,-0.155841564559692,0,0.00291208306531301,-2.11878475704407
111,6378138.19578436,407.937848208859,340.87015048541,0.0030827250061636,0.00366456734813203,1.21799999339721,-0.0171419149882142,-0.431067788821545,4.00763991971658,4.00764083769772,-0.431066691564128,0.0169538596310491,0,0.00282851811766187,-3.93599427481717
112,6378134.52488249,404.896491547615,344.857334046937,0.00311878567749364,0.00363724847503067,-2.45287987680396,-0.13811156106533,-0.267274126799611,3.9663805843181,3.96638809720301,-0.267265358668249,0.13791262536171,0,0.00273144043734457,-5.89962181073692
113,6378138.42036639,407.155486605779,349.644097650053,0.0031620737788091,0.00365753914683438,1.44301018380137,-0.00579728081606978,-0.233517177246611,3.94612248875805,3.94612280351503,-0.233516806695012,0.00559440665135159,0,0.00261984950699541,-8.01473265835156
114,6378136.89819344,406.741903820541,353.969662544023,0.00320119362759003,0.00365382474230717,-0.078948948824014,-0.0027722685283349,-0.97470690565193,3.9180296135565,3.91802976580453,-0.974706726878883,0.00261552114009905,0,0.00249277328193042,-10.2858004254069
115,6378137.81174112,402.211361874916,356.616465935487,0.00322513004493362,0.00361312567355821,0.834459845848973,-0.0347369171718985,-1.01419943447913,3.86815427099282,3.86815622377593,-1.01419724191993,0.0345831383468271,0,0.00234932088626432,-12.7162840818661
116,6378138.68166015,408.010808790871,360.049541378873,0.0032561772799323,0.0036652224848556,1.70494141162746,0.146627757309448,-0.849993988968573,3.63783735205818,3.63782901626946,-0.850003367036387,-0.14678012447457,0,0.00218874998476836,-15.3081277619201
117,6378136.28105247,400.839524225227,363.281162464789,0.0032854043118653,0.00360080311205135,-0.695936504368422,-0.202707569876317,-1.00527783867764,3.63877846816573,3.63879008928581,-1.00526509735883,0.202562095061213,0,0.002010548599866,-18.0611946428354
118,6378133.89853449,401.629193996595,368.231172596141,0.00333017194976969,0.00360789818478382,-3.0781190206656,0.190816050276145,-1.60359618905315,3.38720852724933,3.38719743669784,-1.60360820150377,-0.190911944510542,0,0.00181452867546038,-20.9726613977375
119,6378137.80320527,396.796077359867,372.852304765005,0.00337196200077582,0.00356447935623333,0.826519513784202,0.205534966497273,-1.67012431924054,3.17668077986041,3.17666868436317,-1.67013710272953,-0.205618017641452,0,0.00160092526718834,-24.0364185547931
120,6378138.33291605,399.265711166975,374.745146241695,0.00338907999563026,0.0035866641534281,1.35649608960168,-0.0664604525867261,-1.7459322176854,3.13137557972437,3.13137951188708,-1.74592805390013,0.0663845233646277,0,0.00137049119697455,-27.2425420995717
121,6378138.26379625,399.836158411699,376.909201236599,0.00340865108141427,0.00359178860604845,1.28754039571918,-0.0723851465415457,-1.92649599417398,3.07120414688066,3.07120845498098,-1.9264914526696,0.072323202843346,0,0.00112457315622434,-30.5769181710348
122,6378136.78081455,398.723465721441,380.721046590684,0.00344312504623422,0.00358179395236965,-0.195283031315418,0.106890047847458,-1.94801448341095,2.91838699342974,2.91838057204186,-1.9480211617394,-0.106943646242798,0,0.000865152887798419,-34.0211092113946
123,6378136.17810036,393.630960892445,382.339621072388,0.00345776326935677,0.00353604753589622,-0.79821606632926,-0.138129560347282,-2.38336829884543,2.77800179442729,2.77801013427503,-2.38335976954788,0.138109000395474,0,0.000594837760884331,-37.5525395986861
124,6378138.45237842,387.569651651287,386.251849149825,0.00349314301659831,0.00348159662030575,1.47592809370291,0.0573436521921256,-2.50713627438288,2.69990670711451,2.69990321532325,-2.50713975425979,-0.0573559098301174,0,0.000316789967294697,-41.1450472636972
125,6378139.00366976,387.101223071473,388.106626235784,0.00350991674508438,0.00347738835518542,2.02730433503889,-0.00926684114463727,-2.70384253556004,2.420778930468,2.42077950366151,-2.70384196815826,0.00928264642835321,0,3.45927682780849e-05,-44.769796459662
126,6378136.00514622,387.379228759398,391.068643208268,0.00353670598775536,0.00347988735795958,-0.971020169030079,0.0837680160979941,-2.68416893457283,2.31792657269801,2.31792140758304,-2.68417401731382,-0.0837480704974519,0,-0.000247935920920537,-48.396484802978
127,6378137.01519629,384.461796638029,394.690631228866,0.00356946157785692,0.00345367906838841,0.0390779842073685,0.111725190875985,-2.86439244869213,2.23459854468152,2.23459159074996,-2.86439917806731,-0.111691743340326,0,-0.00052696097726304,-51.9947204690229
128,6378135.77886533,380.41605177879,397.267832695732,0.00359276970234439,0.00341733618659128,-1.19733447539342,-0.0613458211570528,-2.94306633525346,1.91313563307315,1.91313948704923,-2.94306267112273,0.061401392059339,0,-0.000798849725309215,-55.5354099608852
129,6378135.7954,378.217615959219,397.536471330046,0.00359519917930215,0.00339758728909341,-1.18091369945704,0.033420222542319,-2.73675618784763,1.96659291173176,1.96659082098919,-2.7367581648245,-0.0333813351765998,0,-0.0010603644693973,-58.9919946116152
130,6378133.94363475,375.310776892812,398.12901073211,0.0036005589782756,0.00337147568347562,-3.03281344934612,0.0468418201607985,-3.09971728558367,1.76873623970175,1.76873330405614,-3.0997200365469,-0.0467705724656989,0,-0.00130880491956963,-62.3414056816574
131,6378136.27876299,371.98505258408,400.472807296118,0.00362175423430609,0.00334159895608066,-0.697732324349002,-0.0538985314754252,-3.46135573128251,1.45032490469347,1.4503283215656,-3.46135258193073,0.0540087268674645,0,-0.00154208848706731,-65.5646632791745
132,6378137.81352697,369.149180450578,401.971481223043,0.00363530690476572,0.00331612308251752,0.836961804392438,0.108912489788068,-3.59537856872047,1.4112366193518,1.41122971942639,-3.59538486625577,-0.108793938951022,0,-0.00175876841367007,-68.6471067226912
133,6378138.35385056,366.212432185083,403.807636328543,0.00365191221750407,0.00328974154875478,1.37723285829319,0.124818074139576,-3.81277702859935,1.16043268301905,1.16042473897432,-3.81278418897166,-0.124673119675733,0,-0.0019579994029531,-71.5782973234984
134,6378135.62278275,359.375943758385,403.692701122103,0.0036508743528417,0.00322832972390018,-1.35423113221994,0.0291527018884601,-3.84563522496729,1.06842137824985,1.0684195322841,-3.84563686147131,-0.029004099105118,0,-0.00213946596722456,-74.3516688319566
135,6378133.7306404,356.39646079299,406.767509209738,0.00367868308332253,0.00320156551711798,-3.24634398610745,-0.144758639766217,-3.93274350461384,0.746729519439207,0.74673882625692,-3.93273540967124,0.14493044866297,0,-0.00230328993747884,-76.9640136588034
136,6378138.99430241,355.436546919304,405.47752010475,0.003667013763017,0.00319293982465582,2.01718174800582,0.123527672125517,-3.70459423993759,0.800703315791225,0.800695421412397,-3.70460111805043,-0.123372470783699,0,-0.00244993157824678,-79.4148882496003
137,6378136.70462363,350.944578553776,407.778752335088,0.00368782673118853,0.00315258893075467,-0.272598065792663,0.0280572533417067,-3.83393235577721,0.646955689439901,0.646953895780615,-3.83393389376936,-0.0278879396848016,0,-0.00258009503665132,-81.7060053573177
138,6378137.12093334,346.109527861074,406.160362754698,0.00367319026798785,0.00310915472656665,0.143343477780461,-0.0285173459520405,-3.84117851973529,0.502917154148025,0.502918994703625,-3.84117696658635,0.0286935457044001,0,-0.00269464479307811,-83.8406610925662
139,6378135.77428505,341.650458360079,406.44023744977,0.0036757221506851,0.00306909887257998,-1.20352727712305,0.0528681717473346,-4.06447946641246,0.136288118412106,0.13628474042316,-4.06448229251151,-0.0526591974957947,0,-0.00279453625388989,-85.8232254664835
140,6378138.25685205,336.534012260148,407.708193795408,0.00368718771833043,0.00302313586986014,1.27884917538106,0.0255977902045801,-4.26973628725819,0.0648770585332029,0.0648754255878094,-4.26973763194817,-0.0253766782102049,0,-0.00288076102382572,-87.6587094315115
141,6378138.45838049,333.015629231401,407.286615110121,0.00368337497309691,0.00299152960915169,1.48016582672206,-0.0645015296713688,-4.32463483097148,0.150561640967527,0.150565801783462,-4.32463145732026,0.0647176483028673,0,-0.00295430574944521,-89.3524100996104
142,6378137.44754088,326.548747913141,407.117765499566,0.00368184853676181,0.00293343710420828,0.468980996524471,-0.0435784674526809,-4.23437266315511,-0.0794859014914273,-0.0794830870273255,-4.23437042646914,0.043800367086167,0,-0.00301612257200459,-90.9096286304704
143,6378136.57021871,324.242904802003,408.4199508728,0.00369362561447153,0.00291272376526989,-0.408374994111843,0.00173581627104916,-4.2757504864937,-0.0504313631958473,-0.0504314609794444,-4.27575056921169,-0.00151520045881185,0,-0.00306710893836422,-92.3354514222692
144,6378133.6352584,322.949912796146,407.389660477834,0.00368430968886781,0.00290110995467944,-3.34346722786956,0.0732230539887763,-4.29631740316731,-0.293249791591724,-0.293254485483475,-4.29632110523018,-0.0729866574100007,0,-0.00310809458246939,-93.6345837534155
145,6378138.9073017,315.99229008256,408.493264969971,0.00369428728228418,0.00283860618727897,1.9282986110608,-0.0525885640445286,-4.27860505274214,-0.403665348782847,-0.403661943498243,-4.2786024420947,0.0528265662266,0,-0.0031398337370116,-94.8112250617059
146,6378138.00062743,314.507334360056,405.553948007825,0.00366770552992429,0.0028252670087043,1.02136211185788,0.0344305967275609,-4.34636317652974,-0.461968889445024,-0.461971078803415,-4.34636486902566,-0.0341867042651732,0,-0.00316300095507025,-95.8689759450318
147,6378135.56098829,308.213366752103,404.987289463691,0.00366258225440662,0.00276872840374863,-1.41862051596837,0.103060898897023,-4.45705902503029,-0.428479980356249,-0.428486553790003,-4.45706400008213,-0.102818127995946,0,-0.00317818924193115,-96.8107682637889
148,6378136.56973202,303.275910317116,405.620562966457,0.00366830880400238,0.00272437403716384,-0.410072959741133,0.133416121909577,-4.25066916627751,-0.454812290655243,-0.454820818625438,-4.25067550531507,-0.133184886222776,0,-0.00318590948665778,-97.6388111286634
149,6378135.02445221,298.370076150883,404.370343250113,0.00365700308989821,0.002680304825538,-1.95566406842608,-0.185777771674267,-4.86202170762133,-0.452106731847735,-0.452094858819306,-4.86201301159041,0.186034073669353,0,-0.00318659042171097,-98.3545469064355
150,6378139.05917018,293.173223237305,404.468826957755,0.00365789141737715,0.00263361902117256,2.07881917957471,0.00202535707067275,-4.2661682917514,-0.651834448103374,-0.651834563559143,-4.26616838034079,-0.00178764668361959,0,-0.00318057852977141,-98.9586125987285
151,6378136.91906386,287.349916286633,403.528164689267,0.00364938559065957,0.00258130824791686,-0.0616121269818027,-0.0227469509714636,-4.53103470596207,-0.853261202123655,-0.853259738551198,-4.53103367656062,0.02300543200661,0,-0.00316813746134184,-99.4508030317591
152,6378138.25781215,288.687752576863,403.750962204977,0.00365139973178679,0.00259332569158664,1.27721076487525,0.32799773224322,-4.28791003176281,-0.694678371555238,-0.694699260726332,-4.28792487322752,-0.327759380427977,0,-0.0031494466365753,-99.8300332657911
153,6378138.34020867,284.71872550324,402.128464137159,0.00363672631028841,0.00255767128881528,1.35932568072405,0.0531608136296574,-4.20528764431571,-0.596594906073378,-0.596598267224518,-4.20529001321305,-0.0529352227551783,0,-0.00312459878683353,-100.09429854481
154,6378139.97629454,277.894408931854,402.91901251917,0.00364387484617431,0.00249636678266394,2.99516078236134,-0.12329735075976,-4.27616866638887,-0.713901457749964,-0.71389360303997,-4.27616329028675,0.123529064719752,0,-0.00309359626043454,-100.240631035325
155,6378138.69750263,273.385165861606,401.251892542741,0.00362879866169516,0.002455860074334,1.716068205166,0.00997467938374219,-4.24972529083214,-0.98087938566424,-0.980880003901424,-4.24972571447143,-0.0097304005514395,0,-0.00305634598162613,-100.265053645157
156,6378135.38032809,270.365741278441,399.422498585205,0.0036122560770582,0.00242873739222912,-1.60135063589401,0.028567714284344,-4.25236113963377,-0.703888055750281,-0.703889844060364,-4.25236234678341,-0.0283430817334013,0,-0.00301265302986022,-100.162532490592
157,6378140.16544677,264.565317738618,399.351921499191,0.00361161507158161,0.00237662950484952,3.18352034131204,0.044762648992933,-4.32130461193211,-0.611652375143728,-0.611655184224285,-4.32130646496963,-0.0445448458604911,0,-0.00296221291562491,-99.9269312459023
158,6378135.63688203,259.285553749817,399.016036845246,0.00360858001435681,0.00232920225535619,-1.34528236093972,-0.0649169085271113,-3.78516218718749,-0.765926842010466,-0.765922742229129,-3.78515954504152,0.0651190229973939,0,-0.00290460279163055,-99.5509728509126
159,6378137.29348008,256.940518490808,399.137853777214,0.00360968074592946,0.002308135841245,0.311228449513609,0.07556223820445,-4.18242962815829,-0.789806304334295,-0.789811052634546,-4.18243266875684,-0.075343992174367,0,-0.00283927209057975,-99.0262170935257
160,6378137.74267854,250.116402031747,397.661670752146,0.0035963303430732,0.00224683360476508,0.760062826252188,0.0315133294288893,-3.81059737997121,-0.549021838870457,-0.549023806431998,-3.81059861282527,-0.0313294372267064,0,-0.0027655334601541,-98.3430666716952
161,6378138.33415813,246.071271395512,396.660712815425,0.00358727765129869,0.00221049537729208,1.35132232165507,0.0215675025582777,-3.69360466274699,-0.277881154670981,-0.27788249554154,-3.69360549208147,-0.0214076035868477,0,-0.002682555425449,-97.490819704194
162,6378136.2740412,241.757803667714,396.609231928035,0.00358681324039658,0.00217174754704672,-0.70896277804922,0.0501904689576118,-4.01098054282097,-0.401565454495757,-0.401568586200095,-4.01098244236646,-0.0500132973542046,0,-0.00258935900066514,-96.4577934291107
163,6378136.60878617,236.990540510401,396.215798838875,0.00358325496200763,0.00212892237692371,-0.374421347411201,0.0865018719232678,-3.55764335901668,-0.297515874042694,-0.297521274985949,-3.55764657068533,-0.0863510748670468,0,-0.00248482153765608,-95.2315518566536
164,6378139.06623903,234.956885376645,396.083887421031,0.00358206060593714,0.00211065292771508,2.08294801984185,-0.0193441211062843,-3.58540213332977,-0.185031009175701,-0.185029791186413,-3.58540141830133,0.0194877674434764,0,-0.0023676924338735,-93.7992787134054
165,6378137.88468593,231.285986003189,395.884869422148,0.00358026141628752,0.0020776770731962,0.901248314130406,-0.0854695666405573,-3.19058573904038,-0.277513979476365,-0.277508630938203,-3.19058263761909,0.0856026055258407,0,-0.00223662681202411,-92.1483443929875
166,6378134.65095941,230.266125547741,396.10502146872,0.00358225423238267,0.00206851656087232,-2.33250134567317,-0.165727010816173,-3.57889672146678,0.154395271398583,0.154405640780971,-3.57889073598753,0.165846564111704,0,-0.00209024461296909,-90.2671184672867
167,6378135.97549992,228.618145451361,395.143425687983,0.00357355710337972,0.00205371207186195,-1.00808017076244,0.0854479058201525,-3.32870248044644,0.0933657190757636,0.0933603969211129,-3.32870554110604,-0.0853344147140472,0,-0.00192722305732384,-88.1460720951597
168,6378137.08787068,223.941406120472,395.225478814729,0.00357429853945095,0.00201169985011082,0.104129788543443,-0.00108768354107086,-3.22632429924894,0.149931448343144,0.149931522971369,-3.22632425907086,0.00119160910469327,0,-0.00174642905200033,-85.7791896263354
169,6378135.28938794,221.412644081843,394.875400135987,0.00357113354860392,0.0019889841554056,-1.69446305816453,-0.0898987096715708,-3.05944580612918,0.353082229555775,0.353087838699826,-3.05944268351296,0.0899829091075085,0,-0.00154709337468363,-83.1656571166724
170,6378138.08847471,216.172150735625,396.767744413722,0.00358824575195908,0.0019419071379241,1.10456216737932,0.0142557541631831,-3.1308074821679,0.344938427324411,0.344937540502501,-3.13080796353532,-0.01417124504837,0,-0.00132901894049633,-80.3117115410912
171,6378139.16207822,212.363071762892,396.764493971497,0.00358821574797047,0.00190768928409312,2.17803750347788,-0.0261418663638975,-2.89085306581219,0.633162744727182,0.633164386678652,-2.89085219380436,0.0261984660145805,0,-0.00109280078473236,-77.2324225319147
172,6378135.21742595,212.829525627596,397.931811666064,0.00359877484995543,0.00191188069145827,-1.76652599365991,0.0440896122021467,-2.7554535438352,0.864466216167535,0.86446345094819,-2.75545501351036,-0.044051963957412,0,-0.000840017889437781,-73.9530619989014
173,6378136.45013818,211.97088903707,396.711280755142,0.00358773603981896,0.001904167057562,-0.533918902821457,-0.0428550009525123,-2.19936440079981,0.88918262166621,0.889185307986094,-2.19936297534277,0.0428724158220474,0,-0.000573342933996954,-70.5096436873361
174,6378140.3870016,204.708942092735,400.156926362669,0.00361889516088512,0.00183893073761397,3.40292398658414,0.130014432899827,-2.75748380337308,1.071826885748,1.07181867727574,-2.75748797481754,-0.129993628378238,0,-0.000296515076479941,-66.948247122569
175,6378136.60709649,207.743351402188,399.067931870265,0.00360904878560401,0.00186619039168838,-0.37695169008742,-0.0772022750612558,-2.47447004848948,1.27449771743874,1.27450258294171,-2.47446753260875,0.0772025909075743,0,-1.41415067752444e-05,-63.3229248063284
176,6378137.08238557,202.914607148951,403.277390688346,0.00364711757497032,0.00182281290557009,0.098448488972017,0.0397229638515972,-2.65797507383466,1.40594787401667,1.40594534801711,-2.65797633623936,-0.0397278972023676,0,0.00026866411342127,-59.6923144100072
177,6378136.35513102,201.279438743857,404.517705527883,0.00365833502357645,0.00180812414423833,-0.6287787933995,-0.0705671704014605,-2.32628991730468,1.58047231341837,1.58047682059731,-2.32628768920734,0.0705396694838408,0,0.000546747391009152,-56.1154413853991
178,6378138.69388647,197.33077462482,406.852035645731,0.00367944463649495,0.00177265203738501,1.71000273485573,-0.146934419273689,-2.56575820408868,1.67574993407855,1.67575937161763,-2.56575365691335,0.146906185885342,0,0.000815387719784515,-52.6474510067566
179,6378136.93151498,196.144133869134,407.780754015928,0.00368784470557146,0.00176199275181417,-0.0523456352117131,0.0871243711916734,-2.22080082258773,1.90083994023792,1.90083433293332,-2.22080350083636,-0.0871784232507705,0,0.00107068295031054,-49.3360318143719
180,6378138.81014223,190.807922410542,410.053595658817,0.00370839849223274,0.00171405624335708,1.82626643352572,0.000953635130989561,-2.03237306522697,2.21179493777786,2.21179487535745,-2.03237309284639,-0.00103599050121713,0,0.00130977736502893,-46.2190733432603
181,6378134.72009279,192.477862806146,410.157558303659,0.00370934109304321,0.00172905867767277,-2.26372608818311,-0.0431390567457162,-1.90511117390597,2.18997410281808,2.18997689478252,-1.90510987119808,0.0430547692419395,0,0.00153091621317005,-43.3237454698076
182,6378134.69754305,188.353566911189,414.843515071967,0.00375171948423962,0.00169200949005767,-2.28609386058345,-0.0594173687233019,-2.00590421775739,2.45541520343216,2.45541909268787,-2.0059024622203,0.0593158249635108,0,0.00173335523124933,-40.6668471507022
183,6378136.25102294,187.576667694646,415.258483511019,0.00375547141264153,0.00168503007272837,-0.732609678386329,0.136470107255897,-1.7168603681747,2.47040947032357,2.47040052334667,-1.71686438092567,-0.136581539034446,0,0.00191717827746616,-38.2560600081001
184,6378137.64143297,180.906853844095,418.650422041364,0.00378614624205597,0.00162511375423193,0.65783091230498,0.0111548546008651,-1.78629957718325,2.59581276701405,2.59581202757377,-1.78629989285639,-0.0112757218819592,0,0.00208307844862785,-36.0916850716449
185,6378135.28731859,180.774338758161,421.950186469899,0.00381598971913875,0.00162392395045791,-1.69606830741721,0.0542226697395303,-1.85380272996242,2.80083370393266,2.80083008990437,-1.85380426604118,-0.0543566675643758,0,0.00223214547637902,-34.1685001556991
186,6378139.15619312,182.003301522921,424.613238579752,0.00384007121092531,0.00163496292202317,2.17301908409862,0.208163281139644,-1.96532458609178,2.97602936124624,2.97601540682515,-1.96533052533205,-0.208306658195871,0,0.00236568468509294,-32.4774883004699
187,6378135.31291182,178.267393834426,426.692149970297,0.0038588745854851,0.00160140366858827,-1.67022804030626,0.199931029520364,-1.90422268253296,3.11364944346149,3.11363597461602,-1.90422826981481,-0.200087510907568,0,0.00248507735129755,-31.0073028608249
188,6378137.57846234,178.987372869542,429.975910430717,0.00388857052998404,0.00160787078088388,0.595564650745138,-0.019192438972615,-1.66753988239306,3.07829937909481,3.07830067774058,-1.66753934314597,0.0190303153635636,0,0.00259168185699766,-29.7454244800275
189,6378135.21542364,167.918344372794,434.133325211856,0.00392617038127285,0.00150843657404707,-1.76749154785311,0.0105151691543059,-1.76709939877964,3.09682904920728,3.09682832457671,-1.76709967500203,-0.0106808553458581,0,0.00268676955643596,-28.6790222631489
190,6378137.40907355,174.341007886334,437.501563337449,0.00395663033712548,0.00156613181949417,0.426562386263921,0.0204515980873818,-1.77794497525578,3.47198413153941,3.47198271430672,-1.77794553361877,-0.0206427615273982,0,0.00277148743643203,-27.7955605940841
191,6378138.70519221,175.682321059156,441.26742903266,0.00399068685819539,0.00157818071924526,1.72297901920934,0.0813773254230781,-1.77998389453011,3.57684861061377,3.57684293737105,-1.77998613534852,-0.0815774262594047,0,0.00284683994019926,-27.0832027987509
192,6378136.76228768,170.964818854135,443.529447915528,0.00401114509111098,0.00153580315510531,-0.219895738885503,0.263854046084788,-1.57116507081593,3.73254890624529,3.73253042823502,-1.57117214281215,-0.264073237665262,0,0.00291368357752604,-26.5310613320255
193,6378137.73500353,166.010518345805,447.734377775834,0.00404917257291327,0.00149129768735553,0.752985005385444,-0.0449203484499034,-1.94591256050819,3.77700821443242,3.77701138316339,-1.94591139065976,0.0447040702079898,0,0.00297272944377505,-26.1293372936265
194,6378138.61752769,167.451893136337,451.842597559882,0.00408632548493045,0.00150424556776133,1.63583850497538,0.0173413929780524,-1.43296715466157,3.6520461277254,3.65204488433517,-1.4329676094493,-0.0175642350775034,0,0.00302455014718227,-25.8693835547242
195,6378135.51634081,165.168223818474,456.09112973921,0.00412474992225696,0.00148373174387875,-1.46510348878817,-0.0232625069672694,-2.01029799463304,3.77028497635768,3.77028664501415,-2.010297391553,0.0230431410084507,0,0.00306958876102426,-25.7437175784173
196,6378136.20574064,166.746769152047,460.791103532786,0.00416725460689746,0.00149791189925968,-0.775322488230984,-0.194893816936454,-1.96692090499961,3.95947991551633,3.95949408386179,-1.966915809122,0.194657256405281,0,0.00310816825424269,-25.746003001982
197,6378138.56155915,161.228309116197,464.243589061825,0.00419847627485734,0.00144833818821317,1.58060617727633,-0.0541219737384808,-1.87120879166037,3.76721421523347,3.76721817449399,-1.87120742295265,0.0538932234574869,0,0.00314050045068526,-25.8710134388192
198,6378138.15606571,164.370257974698,466.397742080392,0.00421795804224471,0.00147656288197292,1.17535115561539,-0.0567532746266779,-2.14321833762856,3.85562232536114,3.85562649699976,-2.14321687433482,0.056524666751079,0,0.0031666939732661,-26.1145876591231
199,6378137.9076598,159.307253356327,471.198902566927,0.00426137843122188,0.00143108120165902,0.927172047619166,0.0335903053137088,-2.07355532658985,4.0163971839444,4.01639467840594,-2.07355616493075,-0.033837233734477,0,0.00318676089934012,-26.4735820995708
200,6378137.42466399,155.673911028506,475.012669717019,0.00429586929967223,0.00139844244276803,0.444371316114222,-0.0492946061008062,-1.77857463134034,3.88844530816945,3.88844899645948,-1.77857342765617,0.0490464721638361,0,0.00320062202988975,-26.9458242859678
201,6378139.37950941,150.624955038085,479.597867640467,0.00433733508889166,0.00135308648775397,2.39944093948696,-0.122578335216309,-1.78543676590216,3.78878816077914,3.78879743239034,-1.78543387061709,0.122333685162429,0,0.00320811078997911,-27.5300689996884
202,6378138.30681772,147.126524049593,483.174436105182,0.00436968120997943,0.00132165978150173,1.32693934875782,-0.104355604713883,-1.89718861411088,3.94531662401126,3.94532457458913,-1.89718620640255,0.104098476577649,0,0.00320897585925081,-28.2259576844185
203,6378136.96920213,149.053941919389,484.820855828893,0.00438457184995511,0.00133897434806621,-0.010505700789273,-0.0170469570407987,-2.64830629636483,3.75410881433274,3.75411011259867,-2.64830589726261,0.0168215626249554,0,0.0032028826978798,-29.0339805156522
204,6378138.38477484,144.977208124722,492.271071074945,0.00445194832785453,0.0013023521360926,1.40554754272825,-0.157924467137118,-2.54712814153153,3.87774033905987,3.87775260276638,-2.54712455119783,0.157681058781284,0,0.00318941419828171,-29.9554396145753
205,6378137.09365995,144.606721206375,494.869265405228,0.00447544651111405,0.00129902425916283,0.114626660555326,0.00261679657032676,-2.24312163498118,3.78051812622642,3.7805179142644,-2.24312169373333,-0.00286124104517517,0,0.00316807077368495,-30.9924109793113
206,6378136.79994994,141.655221758617,498.722562889238,0.00451029476582249,0.00127251054751409,-0.178847423402636,0.0541961875993273,-2.64751942098429,3.5745687649909,3.57456449224779,-2.6475206240015,-0.054418775582567,0,0.00313827029731849,-32.1477017508834
207,6378136.06769901,141.303759573152,502.662333246167,0.00454592537271216,0.00126935345461658,-0.91079478455599,0.0841924944616417,-2.60416510657303,3.66681628618415,3.66680959927279,-2.60416697116791,-0.0844257306783003,0,0.00309934844456325,-33.4247983709177
208,6378137.79428934,138.420063136268,505.461558137206,0.00457123946602848,0.00124344842839525,0.815955023161077,0.0799519223384499,-2.37542886000191,3.47444328933536,3.47443690357176,-2.37543059458064,-0.0801775720014491,0,0.00305056017308043,-34.8277999909581
209,6378137.7150515,131.387938832703,508.163709562857,0.0045956769531046,0.00118027780353615,0.736784605688129,-0.0622148297368472,-2.35722462789262,3.41191220983463,3.4119171929865,-2.35722334578354,0.061989719288442,0,0.00299108330706764,-36.3613301635668
210,6378137.72067001,133.652314459698,512.226701126409,0.00463242140012217,0.00120061903253647,0.742777361181508,0.00395663970717752,-2.45079321627338,3.22770974066394,3.22770941436822,-2.45079329864573,-0.00416624750029371,0,0.00292002547430314,-38.030418442762
211,6378139.77332857,133.461636893413,517.131728129088,0.00467677944656813,0.00119890576116888,2.79583039413651,0.0052130958881289,-2.32844222281047,3.19725882058388,3.19725838838971,-2.32844233138398,-0.00542535044820133,0,0.00283643596439863,-39.840342189254
212,6378135.64609199,128.178734538235,519.208841970639,0.00469556728081774,0.00115144940761487,-1.3313446475502,0.0763897182952835,-2.73274684684868,3.11959113950267,3.11958487315244,-2.73274838146918,-0.0765904593421198,0,0.00273932440366786,-41.7964178792447
213,6378136.46565069,125.64756360129,522.29212805788,0.00472345097385105,0.00112871136236966,-0.511582873164888,0.0456881134123837,-2.61472424729216,3.00413898915428,3.00413521667453,-2.61472514682827,-0.045884264419538,0,0.00262768841361176,-43.9037309825507
214,6378136.30279466,124.940960947739,526.347976452939,0.00476013095397646,0.00112236387086335,-0.674117126170397,0.113196573039583,-2.9250960521696,2.89342864637084,2.89341923677914,-2.92509826900982,-0.113379659011925,0,0.00250055253205305,-46.1667946322564
215,6378138.56686744,116.299465771236,525.65790862024,0.00475388849172715,0.00104473561960448,1.5897349334266,0.0547218641969662,-3.24581868843745,2.55265109063545,2.55264654643144,-3.24581968570051,-0.0548744755237256,0,0.00235702046906452,-48.5891306775708
216,6378140.50923282,114.561163396449,530.90688200751,0.00480135712080758,0.00102911987412594,3.53250652808658,-0.023779445201189,-2.95107024407098,2.47442861083069,2.47443059928977,-2.95106981647973,0.0236250949948015,0,0.00219634203769655,-51.1727732402619
217,6378138.5414271,111.898591462878,531.328309409801,0.00480516987199771,0.00100520190679163,1.56468888165228,-0.025248272068775,-2.92109929919142,2.10210143187282,2.10210354625068,-2.92109885578409,0.0251232250713801,0,0.00201799461169744,-53.917705444784
218,6378136.29245714,109.558097339488,534.241622428176,0.00483151869423928,0.000984177242471636,-0.684076704312013,0.171840658035301,-2.9910226374039,2.04352786242146,2.04351336886858,-2.99102558869253,-0.171961602549146,0,0.0018217765305675,-56.8212549490081
219,6378135.65668566,103.663630725165,535.620269590686,0.0048439872458513,0.000931226434923154,-1.31983030307269,0.0872179591373152,-3.44213208047272,1.77145834413325,1.77145096881836,-3.44213349756873,-0.087311779288951,0,0.00160790648191863,-59.8774925948953
220,6378137.93097544,106.950077879024,537.972436970857,0.00486525778747254,0.00096074875564067,0.954713023296651,0.0125774601865944,-2.96828366018191,1.51570031688738,1.51569924763724,-2.96828387066634,-0.0126563926189291,0,0.001377118852519,-63.076698536984
221,6378138.42162382,102.485442713181,538.917631892589,0.004873805463128,0.000920642190608768,1.44536843206815,-0.0100729802755546,-3.17206013260961,1.49699311269298,1.49699396846013,-3.17205997034508,0.00999660950229149,0,0.00113074114391001,-66.4049770423877
222,6378139.24506589,97.9584091889241,539.075601238198,0.00487523345574312,0.000879975052009327,2.26875280532184,-0.102154543355797,-3.26700502786467,1.3963611357136,1.39636982714334,-3.26700345854268,0.102085904347476,0,0.000870737086402526,-69.8441083447541
223,6378136.48804449,92.1916353131299,542.924758220853,0.00491004618081434,0.000828171617114957,-0.488025855378074,0.00536356625293977,-3.224267974063,0.98726514189483,0.987264682624793,-3.22426805125289,-0.00540156676675174,0,0.000599699605496514,-73.3717165970396
224,6378135.19445338,87.3247761324157,543.166672072035,0.0049122349790552,0.000784452032837214,-1.78166471787414,0.0652657578426129,-3.36388855842997,0.8305303175016,0.830524722859344,-3.36388945168585,-0.0652909069335607,0,0.000320782517993449,-76.9618025428065
225,6378137.47972166,87.1503506875637,543.128826956995,0.00491189094751515,0.000782884861457957,0.503597927564223,0.0141691370877887,-3.29652211200296,0.588416193686716,0.588414980684704,-3.29652230530116,-0.01417453776246,0,3.75688944103969e-05,-80.5856390446951
